[
  {"name":"Apple Champs-Élysées","city":"Paris","lat":48.8708,"lon":2.3046,"code":""},
  {"name":"Apple Opéra","city":"Paris","lat":48.8704,"lon":2.3324,"code":""},
  {"name":"Apple Saint-Germain","city":"Paris","lat":48.8536,"lon":2.3364,"code":""},
  {"name":"Apple Les 4 Temps","city":"La Défense","lat":48.8925,"lon":2.2389,"code":""},
  {"name":"Apple Vélizy 2","city":"Vélizy-Villacoublay","lat":48.7812,"lon":2.2180,"code":""},
  {"name":"Apple Parly 2","city":"Le Chesnay-Rocquencourt","lat":48.8231,"lon":2.1191,"code":""},
  {"name":"Apple Rosny 2","city":"Rosny-sous-Bois","lat":48.8806,"lon":2.4777,"code":""},
  {"name":"Apple Lille","city":"Lille (Euralille)","lat":50.6372,"lon":3.0720,"code":""},
  {"name":"Apple Strasbourg","city":"Strasbourg","lat":48.5850,"lon":7.7455,"code":""},
  {"name":"Apple Lyon Part-Dieu","city":"Lyon","lat":45.7604,"lon":4.8615,"code":""},
  {"name":"Apple Confluence","city":"Lyon","lat":45.7338,"lon":4.8199,"code":""},
  {"name":"Apple Marseille Terrasses du Port","city":"Marseille","lat":43.3124,"lon":5.3673,"code":""},
  {"name":"Apple Nice CAP3000","city":"Saint-Laurent-du-Var","lat":43.6652,"lon":7.1996,"code":""},
  {"name":"Apple Bordeaux Sainte-Catherine","city":"Bordeaux","lat":44.8386,"lon":-0.5722,"code":""},
  {"name":"Apple Montpellier Odysseum","city":"Montpellier","lat":43.6055,"lon":3.9183,"code":""},
  {"name":"Apple Nantes Atlantis","city":"Saint-Herblain","lat":47.2131,"lon":-1.6339,"code":""}
]
